[{"MeetID":5,"MeetFecha":"2022-04-01T21:14:13.585Z","MeetNombre":"Prueba post","MeetDesc":"Bajo Cruzado","MeetDireccion":"Av. San Martin 5125","MeetLat":-34.59552,"MeetLon":-58.493824,"LPer":[29,2,1],"LPerConfirm":[]},{"MeetID":6,"MeetFecha":"2022-04-26T00:00:00","MeetNombre":"prueba form","MeetDesc":"aaaa","MeetDireccion":"campana 2264","MeetLat":-35.8655,"MeetLon":-58.2545,"LPer":[1],"LPerConfirm":[]},{"MeetID":7,"MeetFecha":"2022-04-26T00:00:00","MeetNombre":"prueba form2","MeetDesc":"aab","MeetDireccion":"rivadavia 893","MeetLat":-35.8655,"MeetLon":-58.2545,"LPer":[1],"LPerConfirm":[]},{"MeetID":8,"MeetFecha":"2022-04-26T13:50:00","MeetNombre":"prueba form 2","MeetDesc":"aac","MeetDireccion":"campana 2264","MeetLat":-35.8655,"MeetLon":-58.256,"LPer":[1],"LPerConfirm":[]},{"MeetID":9,"MeetFecha":"2022-04-26T13:50:00","MeetNombre":"prueba fecha ok","MeetDesc":"prueba ln","MeetDireccion":"rivadavia 893","MeetLat":-35.8655,"MeetLon":-58.256,"LPer":[],"LPerConfirm":[]},{"MeetID":1,"MeetFecha":"2022-04-30T13:00:00","MeetNombre":"Evento 1","MeetDesc":"Evento de desarrollo","MeetDireccion":"Av. Rivadavia 4917","MeetLat":-34.617428,"MeetLon":-58.434547,"LPer":[2,3,1],"LPerConfirm":[]},{"MeetID":2,"MeetFecha":"2022-05-02T13:00:00","MeetNombre":"Evento 2","MeetDesc":"Evento de RRHH","MeetDireccion":"Av. Alvarez Jonte 4502","MeetLat":-34.618195,"MeetLon":-58.504665,"LPer":[1,2,3],"LPerConfirm":[]},{"MeetID":3,"MeetFecha":"2022-05-03T13:00:00","MeetNombre":"Evento 3","MeetDesc":"Evento de Cajeros","MeetDireccion":"Av. San Martin 5644","MeetLat":-34.597027,"MeetLon":-58.498577,"LPer":[1,2,3],"LPerConfirm":[]},{"MeetID":4,"MeetFecha":"2022-05-04T13:00:00","MeetNombre":"Evento 4","MeetDesc":"Evento de Administrativos","MeetDireccion":"Asuncion 4189","MeetLat":-34.601807,"MeetLon":-58.515266,"LPer":[1,2,3],"LPerConfirm":[]}]